$GPGGA,192014.000,4305.0974,N,07740.6962,W,1,08,0.9,170.1,M,-34.4,M,,0000*6E
$GPGSA,A,3,02,05,06,25,12,29,09,13,,,,,1.7,0.9,1.4*3D
$GPGSV,3,1,11,02,72,044,39,05,69,218,36,06,36,081,37,25,30,275,28*72
$GPGSV,3,2,11,12,28,231,27,29,25,312,23,09,21,049,37,13,08,166,26*75
$GPGSV,3,3,11,38,00,000,,10,48,054,,20,17,230,*4B
$GPRMC,192014.000,A,4305.0974,N,07740.6962,W,0.00,313.05,290915,,,A*76
$GPGGA,192015.000,4305.0974,N,07740.6962,W,1,08,0.9,170.1,M,-34.4,M,,0000*6F
$GPGSA,A,3,02,05,06,25,12,29,09,13,,,,,1.7,0.9,1.4*3D
$GPRMC,192015.000,A,4305.0974,N,07740.6962,W,0.00,313.05,290915,,,A*77
$GPGGA,192016.000,4305.0974,N,07740.6962,W,1,08,0.9,170.1,M,-34.4,M,,0000*6C
$GPGSA,A,3,02,05,06,25,12,29,09,13,,,,,1.7,0.9,1.4*3D
$GPRMC,192016.000,A,4305.0974,N,07740.6962,W,0.00,313.05,290915,,,A*74
$GPGGA,192017.000,4305.0974,N,07740.6962,W,1,08,0.9,170.1,M,-34.4,M,,0000*6D
$GPGSA,A,3,02,05,06,25,12,29,09,13,,,,,1.7,0.9,1.4*3D
$GPRMC,192017.000,A,4305.0974,N,07740.6962,W,0.00,313.05,290915,,,A*75
$GPGGA,192018.000,4305.0974,N,07740.6962,W,1,08,0.9,170.2,M,-34.4,M,,0000*61
$GPGSA,A,3,02,05,06,25,12,29,09,13,,,,,1.7,0.9,1.4*3D
$GPRMC,192018.000,A,4305.0974,N,07740.6962,W,0.00,313.05,290915,,,A*7A
$GPGGA,192019.000,4305.0974,N,07740.6962,W,1,08,0.9,170.2,M,-34.4,M,,0000*60
$GPGSA,A,3,02,05,06,25,12,29,09,13,,,,,1.7,0.9,1.4*3D
$GPGSV,3,1,11,02,72,044,38,05,69,218,30,06,36,081,36,25,30,275,29*75
$GPGSV,3,2,11,12,28,231,32,29,25,312,35,09,21,049,38,13,08,166,26*79
$GPGSV,3,3,11,20,17,230,24,38,00,000,,10,48,054,*4D
$GPRMC,192019.000,A,4305.0974,N,07740.6962,W,0.00,313.05,290915,,,A*7B
$GPGGA,192020.000,4305.0974,N,07740.6962,W,1,08,0.9,170.2,M,-34.4,M,,0000*6A
$GPGSA,A,3,02,05,06,25,12,29,09,13,,,,,1.7,0.9,1.4*3D
$GPRMC,192020.000,A,4305.0974,N,07740.6962,W,0.00,313.05,290915,,,A*71
$GPGGA,192021.000,4305.0973,N,07740.6960,W,1,07,1.0,170.2,M,-34.4,M,,0000*69
$GPGSA,A,3,02,05,06,12,29,09,13,,,,,,1.7,1.0,1.4*32
$GPRMC,192021.000,A,4305.0973,N,07740.6960,W,0.16,313.05,290915,,,A*72
$GPGGA,192022.000,4305.0974,N,07740.6959,W,1,08,0.9,170.2,M,-34.4,M,,0000*60
$GPGSA,A,3,02,05,06,25,12,29,09,13,,,,,1.7,0.9,1.4*3D
$GPRMC,192022.000,A,4305.0974,N,07740.6959,W,0.20,313.05,290915,,,A*79
$GPGGA,192023.000,4305.0973,N,07740.6959,W,1,08,0.9,170.0,M,-34.4,M,,0000*64
$GPGSA,A,3,02,05,06,25,12,29,09,13,,,,,1.7,0.9,1.4*3D
$GPRMC,192023.000,A,4305.0973,N,07740.6959,W,0.25,313.05,290915,,,A*7A
$GPGGA,192024.000,4305.0974,N,07740.6962,W,1,08,0.9,169.8,M,-34.4,M,,0000*6C
$GPGSA,A,3,02,05,06,25,12,29,09,13,,,,,1.7,0.9,1.4*3D
$GPGSV,3,1,11,02,72,044,31,05,69,218,30,06,36,081,21,25,30,275,25*76
$GPGSV,3,2,11,12,28,231,20,29,25,312,28,09,21,049,26,13,08,166,20*7F
$GPGSV,3,3,11,38,00,000,,10,48,054,,20,17,230,*4B
$GPRMC,192024.000,A,4305.0974,N,07740.6962,W,0.30,313.05,290915,,,A*76
$GPGGA,192025.000,4305.0973,N,07740.6961,W,1,08,0.9,169.8,M,-34.4,M,,0000*69
$GPGSA,A,3,02,05,06,25,12,29,09,13,,,,,1.7,0.9,1.4*3D
$GPRMC,192025.000,A,4305.0973,N,07740.6961,W,0.11,313.05,290915,,,A*70
$GPGGA,192026.000,4305.0973,N,07740.6956,W,1,08,0.9,169.8,M,-34.4,M,,0000*6E
$GPGSA,A,3,02,05,06,25,12,29,09,13,,,,,1.7,0.9,1.4*3D
$GPRMC,192026.000,A,4305.0973,N,07740.6956,W,0.81,313.05,290915,,,A*7E
$GPGGA,192027.000,4305.0974,N,07740.6952,W,1,08,0.9,169.9,M,-34.4,M,,0000*6D
$GPGSA,A,3,02,05,06,25,12,29,09,13,,,,,1.7,0.9,1.4*3D
$GPRMC,192027.000,A,4305.0974,N,07740.6952,W,0.73,313.05,290915,,,A*71
$GPGGA,192028.000,4305.0971,N,07740.6950,W,1,08,0.9,169.8,M,-34.4,M,,0000*64
$GPGSA,A,3,02,05,06,25,12,29,09,13,,,,,1.7,0.9,1.4*3D
$GPRMC,192028.000,A,4305.0971,N,07740.6950,W,0.27,313.05,290915,,,A*78
$GPGGA,192029.000,4305.0972,N,07740.6950,W,1,08,0.9,169.8,M,-34.4,M,,0000*66
$GPGSA,A,3,02,05,06,25,12,29,09,13,,,,,1.7,0.9,1.4*3D
$GPGSV,3,1,11,02,72,044,31,05,69,218,33,06,36,081,31,25,30,275,27*76
$GPGSV,3,2,11,12,28,231,19,29,25,312,34,09,21,049,30,13,08,166,26*79
$GPGSV,3,3,11,38,00,000,,10,48,054,,20,17,230,*4B
$GPRMC,192029.000,A,4305.0972,N,07740.6950,W,0.00,313.05,290915,,,A*7F
$GPGGA,192030.000,4305.0972,N,07740.6950,W,1,08,0.9,169.8,M,-34.4,M,,0000*6E
$GPGSA,A,3,02,05,06,25,12,29,09,13,,,,,1.7,0.9,1.4*3D
$GPRMC,192030.000,A,4305.0972,N,07740.6950,W,0.00,313.05,290915,,,A*77
$GPGGA,192031.000,4305.0972,N,07740.6950,W,1,08,0.9,169.8,M,-34.4,M,,0000*6F
$GPGSA,A,3,02,05,06,25,12,29,09,13,,,,,1.7,0.9,1.4*3D
$GPRMC,192031.000,A,4305.0972,N,07740.6950,W,0.00,313.05,290915,,,A*76
$GPGGA,192032.000,4305.0972,N,07740.6950,W,1,08,0.9,169.8,M,-34.4,M,,0000*6C
$GPGSA,A,3,02,05,06,25,12,29,09,13,,,,,1.7,0.9,1.4*3D
$GPRMC,192032.000,A,4305.0972,N,07740.6950,W,0.00,313.05,290915,,,A*75
$GPGGA,192033.000,4305.0972,N,07740.6950,W,1,08,0.9,169.8,M,-34.4,M,,0000*6D
$GPGSA,A,3,02,05,06,25,12,29,09,13,,,,,1.7,0.9,1.4*3D
$GPRMC,192033.000,A,4305.0972,N,07740.6950,W,0.00,313.05,290915,,,A*74
$GPGGA,192034.000,4305.0972,N,07740.6950,W,1,08,0.9,169.8,M,-34.4,M,,0000*6A
$GPGSA,A,3,02,05,06,25,12,29,09,13,,,,,1.7,0.9,1.4*3D
$GPGSV,3,1,11,02,72,044,36,05,69,218,30,06,36,081,39,25,30,275,16*78
$GPGSV,3,2,11,12,28,231,19,29,25,312,26,09,21,049,38,13,08,166,26*72
$GPGSV,3,3,11,51,32,219,,10,48,054,,20,17,230,*4F
$GPRMC,192034.000,A,4305.0972,N,07740.6950,W,0.00,313.05,290915,,,A*73
$GPGGA,192035.000,4305.0972,N,07740.6950,W,1,08,0.9,169.8,M,-34.4,M,,0000*6B
$GPGSA,A,3,02,05,06,25,12,29,09,13,,,,,1.7,0.9,1.4*3D
$GPRMC,192035.000,A,4305.0972,N,07740.6950,W,0.00,313.05,290915,,,A*72
$GPGGA,192036.000,4305.0972,N,07740.6950,W,1,08,0.9,169.8,M,-34.4,M,,0000*68
$GPGSA,A,3,02,05,06,25,12,29,09,13,,,,,1.7,0.9,1.4*3D
$GPRMC,192036.000,A,4305.0972,N,07740.6950,W,0.00,313.05,290915,,,A*71
$GPGGA,192037.000,4305.0972,N,07740.6950,W,1,08,0.9,169.8,M,-34.4,M,,0000*69
$GPGSA,A,3,02,05,06,25,12,29,09,13,,,,,1.7,0.9,1.4*3D
$GPRMC,192037.000,A,4305.0972,N,07740.6950,W,0.00,313.05,290915,,,A*70
$GPGGA,192038.000,4305.0972,N,07740.6950,W,1,08,0.9,169.8,M,-34.4,M,,0000*66
$GPGSA,A,3,02,05,06,25,12,29,09,13,,,,,1.7,0.9,1.4*3D
$GPRMC,192038.000,A,4305.0972,N,07740.6950,W,0.00,313.05,290915,,,A*7F
$GPGGA,192039.000,4305.0972,N,07740.6950,W,1,08,0.9,169.8,M,-34.4,M,,0000*67
$GPGSA,A,3,02,05,06,25,12,29,09,13,,,,,1.7,0.9,1.4*3D
$GPGSV,3,1,11,02,72,044,35,05,69,218,29,06,36,081,38,25,30,275,17*73
$GPGSV,3,2,11,12,28,231,18,29,25,312,24,09,21,049,37,13,08,166,25*7D
$GPGSV,3,3,11,51,32,219,,10,48,054,,20,17,230,*4F
$GPRMC,192039.000,A,4305.0972,N,07740.6950,W,0.00,313.05,290915,,,A*7E